$GPTXT,01,01,02,u-blox ag - www.u-blox.com*50
$GPTXT,01,01,02,HW  UBX-G70xx   00070000 FF7FFFFFo*69
$GPTXT,01,01,02,ROM CORE 1.00 (59842) Jun 27 2012 17:43:52*59
$GPTXT,01,01,02,PROTVER 14.00*1E
$GPTXT,01,01,02,ANTSUPERV=AC SD PDoS SR*20
$GPTXT,01,01,02,ANTSTATUS=OK*3B
$GPTXT,01,01,02,LLC FFFFFFFF-FFFFFFFF-FFFFFFFF-FFFFFFFF-FFFFFFFD*2C
$GPRMC,164830.00,A,4333.72490,N,00128.21506,E,0.149,,240325,,,D*77
$GPVTG,,T,,M,0.149,N,0.276,K,D*29
$GPGGA,164830.00,4333.72490,N,00128.21506,E,2,05,2.26,127.6,M,48.5,M,,0000*5B
$GPGSA,A,3,32,22,10,02,08,,,,,,,,3.37,2.26,2.50*0E
$GPGSV,3,1,12,01,49,283,,02,70,323,22,03,26,218,11,08,73,163,18*77
$GPGSV,3,2,12,10,30,047,38,14,19,312,17,17,00,311,,21,73,030,30*78
$GPGSV,3,3,12,22,08,327,34,27,35,140,,32,33,088,44,40,18,116,35*79
$GPGLL,4333.72490,N,00128.21506,E,164830.00,A,D*60
$GPRMC,164831.00,A,4333.72492,N,00128.21507,E,0.155,,240325,,,D*78
$GPVTG,,T,,M,0.155,N,0.286,K,D*2B
$GPGGA,164831.00,4333.72492,N,00128.21507,E,2,05,2.26,127.4,M,48.5,M,,0000*5B
$GPGSA,A,3,32,22,10,02,08,,,,,,,,3.37,2.26,2.50*0E
$GPGSV,3,1,12,01,49,283,,02,70,323,22,03,26,218,09,08,72,163,19*7E
$GPGSV,3,2,12,10,30,047,39,14,19,312,16,17,00,311,,21,73,030,30*78
$GPGSV,3,3,12,22,08,327,34,27,35,140,,32,33,088,44,40,18,116,36*7A
$GPGLL,4333.72492,N,00128.21507,E,164831.00,A,D*62
$GPRMC,164832.00,A,4333.72494,N,00128.21508,E,0.032,,240325,,,D*72
$GPVTG,,T,,M,0.032,N,0.058,K,D*2A
$GPGGA,164832.00,4333.72494,N,00128.21508,E,2,05,2.26,127.3,M,48.5,M,,0000*56
$GPGSA,A,3,32,22,10,02,08,,,,,,,,3.37,2.26,2.50*0E
$GPGSV,3,1,12,01,49,283,,02,70,323,23,03,26,218,08,08,72,163,19*7E
$GPGSV,3,2,12,10,30,047,38,14,19,312,15,17,00,311,,21,73,030,30*7A
$GPGSV,3,3,12,22,08,327,33,27,35,140,,32,33,088,44,40,18,116,35*7E
$GPGLL,4333.72494,N,00128.21508,E,164832.00,A,D*68
$GPRMC,164833.00,A,4333.72497,N,00128.21512,E,0.109,,240325,,,D*72
$GPVTG,,T,,M,0.109,N,0.203,K,D*2F
$GPGGA,164833.00,4333.72497,N,00128.21512,E,2,05,2.26,127.2,M,48.5,M,,0000*5E
$GPGSA,A,3,32,22,10,02,08,,,,,,,,3.37,2.26,2.50*0E
$GPGSV,3,1,12,01,49,283,,02,70,323,23,03,26,218,08,08,72,163,19*7E
$GPGSV,3,2,12,10,30,047,39,14,19,312,14,17,00,311,,21,73,030,30*7A
$GPGSV,3,3,12,22,08,327,34,27,35,140,,32,33,088,44,40,18,116,35*79
$GPGLL,4333.72497,N,00128.21512,E,164833.00,A,D*61
$GPRMC,164834.00,A,4333.72502,N,00128.21517,E,0.073,,240325,,,D*71
$GPVTG,,T,,M,0.073,N,0.135,K,D*25
$GPGGA,164834.00,4333.72502,N,00128.21517,E,2,05,2.26,127.1,M,48.5,M,,0000*52
$GPGSA,A,3,32,22,10,02,08,,,,,,,,3.37,2.26,2.50*0E
$GPGSV,3,1,12,01,49,283,,02,70,323,23,03,26,218,08,08,72,163,19*7E
$GPGSV,3,2,12,10,30,047,38,14,19,312,13,17,00,311,,21,73,030,30*7C
$GPGSV,3,3,12,22,08,327,34,27,35,140,24,32,33,088,44,40,18,116,35*7F
$GPGLL,4333.72502,N,00128.21517,E,164834.00,A,D*6E
$GPRMC,164835.00,A,4333.72505,N,00128.21519,E,0.081,,240325,,,D*74
$GPVTG,,T,,M,0.081,N,0.149,K,D*23
$GPGGA,164835.00,4333.72505,N,00128.21519,E,2,05,2.26,127.1,M,48.5,M,,0000*5A
$GPGSA,A,3,32,22,10,02,08,,,,,,,,3.37,2.26,2.50*0E
$GPGSV,3,1,12,01,49,283,,02,70,323,23,03,26,218,08,08,72,163,19*7E
$GPGSV,3,2,12,10,30,047,39,14,19,312,14,17,00,311,,21,73,030,30*7A
$GPGSV,3,3,12,22,08,327,34,27,35,140,25,32,33,088,44,40,18,116,36*7D
$GPGLL,4333.72505,N,00128.21519,E,164835.00,A,D*66
$GPRMC,164836.00,A,4333.72507,N,00128.21518,E,0.040,,240325,,,D*79
$GPVTG,,T,,M,0.040,N,0.074,K,D*21
$GPGGA,164836.00,4333.72507,N,00128.21518,E,2,05,2.26,127.0,M,48.5,M,,0000*5B
$GPGSA,A,3,32,22,10,02,08,,,,,,,,3.37,2.26,2.50*0E
$GPGSV,3,1,12,01,49,283,,02,70,323,24,03,26,218,08,08,72,163,18*78
$GPGSV,3,2,12,10,30,047,38,14,19,312,12,17,00,311,,21,73,030,30*7D
$GPGSV,3,3,12,22,08,327,34,27,35,140,24,32,33,088,44,40,18,116,36*7C
$GPGLL,4333.72507,N,00128.21518,E,164836.00,A,D*66
$GPRMC,164837.00,A,4333.72515,N,00128.21525,E,0.114,,240325,,,D*75
$GPVTG,,T,,M,0.114,N,0.211,K,D*20
$GPGGA,164837.00,4333.72515,N,00128.21525,E,2,05,2.26,126.9,M,48.5,M,,0000*5F
$GPGSA,A,3,32,22,10,02,08,,,,,,,,3.37,2.26,2.50*0E
$GPGSV,3,1,12,01,49,283,,02,70,323,25,03,26,218,08,08,72,163,17*76
$GPGSV,3,2,12,10,30,047,38,14,19,312,11,17,00,311,,21,73,030,30*7E
$GPGSV,3,3,12,22,08,327,33,27,35,140,,32,33,088,44,40,18,116,35*7E
$GPGLL,4333.72515,N,00128.21525,E,164837.00,A,D*6A
$GPRMC,164838.00,A,4333.72521,N,00128.21531,E,0.138,,240325,,,D*76
$GPVTG,,T,,M,0.138,N,0.256,K,D*2D
$GPGGA,164838.00,4333.72521,N,00128.21531,E,2,05,2.26,126.8,M,48.5,M,,0000*53
$GPGSA,A,3,32,22,10,02,08,,,,,,,,3.37,2.26,2.50*0E
$GPGSV,3,1,12,01,49,283,,02,70,323,25,03,26,218,,08,72,163,16*7F
$GPGSV,3,2,12,10,30,047,38,14,19,312,11,17,00,311,,21,73,030,30*7E
$GPGSV,3,3,12,22,08,327,33,27,35,140,25,32,33,088,44,40,18,116,35*79
$GPGLL,4333.72521,N,00128.21531,E,164838.00,A,D*67
$GPRMC,164839.00,A,4333.72526,N,00128.21534,E,0.066,,240325,,,D*7F
$GPVTG,,T,,M,0.066,N,0.122,K,D*27
$GPGGA,164839.00,4333.72526,N,00128.21534,E,2,06,1.45,126.7,M,48.5,M,,0000*5A
$GPGSA,A,3,27,32,22,10,02,08,,,,,,,2.29,1.45,1.77*05
$GPGSV,3,1,12,01,49,283,,02,70,323,25,03,26,218,,08,72,163,15*7C
$GPGSV,3,2,12,10,30,047,38,14,19,312,11,17,00,311,,21,73,030,30*7E
$GPGSV,3,3,12,22,08,327,33,27,35,140,25,32,33,088,44,40,18,116,35*79
$GPGLL,4333.72526,N,00128.21534,E,164839.00,A,D*64
$GPRMC,164840.00,A,4333.72532,N,00128.21539,E,0.101,,240325,,,D*79
$GPVTG,,T,,M,0.101,N,0.187,K,D*28
$GPGGA,164840.00,4333.72532,N,00128.21539,E,2,06,1.45,126.7,M,48.5,M,,0000*5C
$GPGSA,A,3,27,32,22,10,02,08,,,,,,,2.29,1.45,1.77*05
$GPGSV,3,1,12,01,49,283,,02,70,323,26,03,26,218,,08,72,163,13*79
$GPGSV,3,2,12,10,30,047,38,14,19,312,11,17,00,312,,21,73,030,30*7D
$GPGSV,3,3,12,22,08,327,33,27,35,140,25,32,33,088,44,40,18,116,35*79
$GPGLL,4333.72532,N,00128.21539,E,164840.00,A,D*62
$GPRMC,164841.00,A,4333.72534,N,00128.21542,E,0.116,,240325,,,D*74
$GPVTG,,T,,M,0.116,N,0.215,K,D*26
$GPGGA,164841.00,4333.72534,N,00128.21542,E,2,06,1.45,126.6,M,48.5,M,,0000*56
$GPGSA,A,3,27,32,22,10,02,08,,,,,,,2.29,1.45,1.77*05
$GPGSV,3,1,12,01,49,283,,02,70,323,26,03,26,218,,08,72,163,10*7A
$GPGSV,3,2,12,10,30,047,38,14,19,312,12,17,00,312,,21,73,030,30*7E
$GPGSV,3,3,12,22,08,327,33,27,35,140,25,32,33,088,43,40,18,116,35*7E
$GPGLL,4333.72534,N,00128.21542,E,164841.00,A,D*69
$GPRMC,164842.00,A,4333.72527,N,00128.21535,E,0.118,,240325,,,D*7B
$GPVTG,,T,,M,0.118,N,0.218,K,D*25
$GPGGA,164842.00,4333.72527,N,00128.21535,E,2,05,1.51,126.6,M,48.5,M,,0000*51
$GPGSA,A,3,27,32,22,10,02,,,,,,,,2.46,1.51,1.95*0D
$GPGSV,3,1,12,01,49,283,,02,70,323,26,03,26,218,,08,72,163,09*72
$GPGSV,3,2,12,10,30,047,38,14,19,312,11,17,00,312,,21,73,030,30*7D
$GPGSV,3,3,12,22,08,327,32,27,35,140,25,32,33,088,44,40,18,116,35*78
$GPGLL,4333.72527,N,00128.21535,E,164842.00,A,D*68
$GPRMC,164843.00,A,4333.72514,N,00128.21522,E,0.108,,240325,,,D*7D
$GPVTG,,T,,M,0.108,N,0.201,K,D*2C
$GPGGA,164843.00,4333.72514,N,00128.21522,E,2,05,1.51,126.6,M,48.5,M,,0000*56
$GPGSA,A,3,27,32,22,10,02,,,,,,,,2.46,1.51,1.95*0D
$GPGSV,3,1,12,01,49,283,,02,70,323,26,03,26,218,,08,72,163,09*72
$GPGSV,3,2,12,10,30,047,38,14,19,312,11,17,00,312,,21,73,030,31*7C
$GPGSV,3,3,12,22,08,327,32,27,35,140,25,32,33,088,44,40,18,116,36*7B
$GPGLL,4333.72514,N,00128.21522,E,164843.00,A,D*6F
